 [
  {
    id: 1,
    name: "Hope Education Center",
    address: "123 Main Street, Springfield",
    lat: 40.7128,
    lng: -74.0060,
    category: "Education",
    description: "A facility dedicated to providing free education, evening classes, and skill-building workshops for underprivileged children and adults.",
    isActive: true,
  },
  {
    id: 2,
    name: "Community Food Bank",
    address: "456 Elm Street, Riverside",
    lat: 34.0522,
    lng: -118.2437,
    category: "Food",
    description: "A community-run initiative offering daily meals, monthly grocery distributions, and support for families facing food insecurity.",
    isActive: true,
  },
  {
    id: 3,
    name: "Healing Hands Clinic",
    address: "789 Pine Avenue, Metropolis",
    lat: 37.7749,
    lng: -122.4194,
    category: "HealthCare",
    description: "A free healthcare center providing medical checkups, vaccinations, and basic treatments for people without insurance or access to hospitals.",
    isActive: true,
  },
  {
    id: 4,
    name: "Youth Empowerment Hub",
    address: "101 Maple Drive, Lakeside",
    lat: 36.1627,
    lng: -86.7816,
    category: "Education",
    description: "Empowering young individuals through mentorship programs, coding boot camps, and leadership development workshops.",
    isActive: true,
  },
  {
    id: 5,
    name: "Urban Food Assistance",
    address: "202 Cedar Road, Greenfield",
    lat: 41.8781,
    lng: -87.6298,
    category: "Food",
    description: "A volunteer-driven organization delivering nutritious meals and emergency food supplies to low-income families and senior citizens.",
    isActive: false,
  },
  {
    id: 6,
    name: "Healthy Living Center",
    address: "303 Birch Lane, Summit",
    lat: 39.7392,
    lng: -104.9903,
    category: "HealthCare",
    description: "Offering wellness programs, mental health counseling, and lifestyle coaching to promote a healthier community.",
    isActive: true,
  },
  {
    id: 7,
    name: "Bright Minds Tutoring",
    address: "404 Aspen Way, Hilltop",
    lat: 34.0522,
    lng: -117.7538,
    category: "Education",
    description: "Providing after-school tutoring and test preparation services to help students excel academically and achieve their goals.",
    isActive: false,
  },
  {
    id: 8,
    name: "Community Kitchen",
    address: "505 Oak Street, Fairview",
    lat: 29.7604,
    lng: -95.3698,
    category: "Food",
    description: "A local kitchen offering free, freshly prepared meals to homeless individuals and struggling families every day.",
    isActive: true,
  },
  {
    id: 9,
    name: "Care and Cure Clinic",
    address: "606 Willow Drive, Brookside",
    lat: 25.7617,
    lng: -80.1918,
    category: "HealthCare",
    description: "Providing essential healthcare services, including diagnostics, treatment plans, and access to affordable medications.",
    isActive: true,
  },
  {
    id: 10,
    name: "Skills for Life",
    address: "707 Redwood Avenue, Valleytown",
    lat: 47.6062,
    lng: -122.3321,
    category: "Education",
    description: "An education center offering workshops on essential life skills, from financial literacy to vocational training programs.",
    isActive: true,
  },
  {
    id: 11,
    name: "Harvest Food Pantry",
    address: "808 Chestnut Street, Pleasantville",
    lat: 32.7767,
    lng: -96.7970,
    category: "Food",
    description: "Distributing fresh produce, canned goods, and other essentials to support families during tough times.",
    isActive: false,
  },
  {
    id: 12,
    name: "Wellness Center",
    address: "909 Spruce Avenue, Riverwood",
    lat: 33.4484,
    lng: -112.0740,
    category: "HealthCare",
    description: "A wellness hub offering fitness classes, nutrition counseling, and holistic health workshops for community members.",
    isActive: true,
  },
  {
    id: 13,
    name: "Knowledge Tree",
    address: "1001 Palm Lane, Sunnydale",
    lat: 39.9526,
    lng: -75.1652,
    category: "Education",
    description: "A community library and resource hub offering free books, learning materials, and educational workshops.",
    isActive: true,
  },
  {
    id: 14,
    name: "Community Support Kitchen",
    address: "1102 Pine Court, Eastwood",
    lat: 40.4406,
    lng: -79.9959,
    category: "Food",
    description: "Serving healthy meals and providing cooking lessons to help families create nutritious meals at home.",
    isActive: false,
  },
  {
    id: 15,
    name: "Healing Touch Medical",
    address: "1203 Fir Avenue, Oakdale",
    lat: 29.9511,
    lng: -90.0715,
    category: "HealthCare",
    description: "Organizing free medical camps and providing consultations to address the healthcare needs of underserved communities.",
    isActive: true,
  },
  {
    id: 16,
    name: "Career Pathway Center",
    address: "1304 Cypress Road, Meadowbrook",
    lat: 38.9072,
    lng: -77.0369,
    category: "Education",
    description: "Guiding individuals in finding suitable career paths with resume building, interview preparation, and job placement services.",
    isActive: true,
  },
  {
    id: 17,
    name: "Daily Bread Program",
    address: "1405 Magnolia Drive, Ridgefield",
    lat: 42.3601,
    lng: -71.0589,
    category: "Food",
    description: "Providing food kits and meal support to individuals and families facing financial difficulties.",
    isActive: false,
  },
  {
    id: 18,
    name: "Compassion HealthCare",
    address: "1506 Maple Boulevard, Highland",
    lat: 34.0522,
    lng: -118.2437,
    category: "HealthCare",
    description: "Committed to improving public health by offering preventative care, health screenings, and community outreach programs.",
    isActive: true,
  },
  {
    id: 19,
    name: "Future Scholars Academy",
    address: "1607 Ash Lane, Parkview",
    lat: 37.7749,
    lng: -122.4194,
    category: "Education",
    description: "Empowering children through free education programs, scholarships, and mentoring opportunities.",
    isActive: true,
  },
  {
    id: 20,
    name: "Harvest Kitchen",
    address: "1708 Cedar Boulevard, Harmony",
    lat: 41.8781,
    lng: -87.6298,
    category: "Food",
    description: "A dedicated kitchen delivering freshly prepared meals to seniors, low-income families, and individuals in crisis.",
    isActive: true,
  },
]
